{
	"monday": [
		{
			"title": "Kung Fu 1",
			"slug": "kungfu",
			"level": "1st year",
			"hours": "6:00 PM - 7:30 PM"
		},
		{
			"title": "Kung Fu 2",
			"slug": "kungfu",
			"level": "2nd year and above",
			"hours": "7:30 PM - 9:00 PM"
		}
	],
	"tuesday": [
		{
			"title": "Physical Training",
			"slug": "physique",
			"level": "All levels",
			"hours": "6:00 PM - 7:15 PM"
		},
		{
			"title": "Sanda",
			"slug": "boxe",
			"level": "All levels",
			"hours": "7:15 PM - 8:30 PM"
		},
		{
			"title": "Kung Fu 3",
			"slug": "kungfu",
			"level": "3rd year and above",
			"hours": "8:30 PM - 10:00 PM"
		}
	],
	"wednesday": [
		{
			"title": "Kids",
			"slug": "kids",
			"level": "7-11 years old",
			"hours": "5:00 PM - 6:00 PM"
		},
		{
			"title": "Kung Fu 1",
			"slug": "kungfu",
			"level": "1st year",
			"hours": "6:00 PM - 7:30 PM"
		},
		{
			"title": "Kung Fu 2",
			"slug": "kungfu",
			"level": "2nd year and above",
			"hours": "7:30 PM - 9:00 PM"
		}
	],
	"thursday": [
		{
			"title": "Qi Gong",
			"slug": "qigong",
			"level": "All levels",
			"hours": "6:00 PM - 7:00 PM"
		},
		{
			"title": "Tai Chi Chuan",
			"slug": "taichi",
			"level": "All levels",
			"hours": "7:00 PM - 8:00 PM"
		},
		{
			"title": "Kung Fu 3",
			"slug": "kungfu",
			"level": "3rd year and above",
			"hours": "8:00 PM - 9:30 PM"
		}
	],
	"friday": [
		{
			"title": "Qi Gong",
			"slug": "qigong",
			"level": "All levels",
			"hours": "6:00 PM - 7:00 PM"
		},
		{
			"title": "Tai Chi Chuan",
			"slug": "taichi",
			"level": "All levels",
			"hours": "7:00 PM - 8:00 PM"
		},
		{
			"title": "Meditation",
			"slug": "meditation",
			"level": "â‚¬5 per session",
			"hours": "8:00 PM - 9:00 PM"
		}
	]
}
